{
  "data": [
    {"gps_lat": 21.0,
      "gps_lon": -155.5,
      "name": "home"
    },
    {
      "gps_lat": 20.95055806133913,
      "gps_lon": -155.39404559480084,
      "name": "work"
    },
    {
      "gps_lat": 21.050893278858,
      "gps_lon": -155.5651383961764,
      "name": "orchestra"
    },
    {
      "gps_lat": 21.105211444229866,
      "gps_lon": -155.64667015861,
      "name": "workout"
    },
    {
      "gps_lat": 21.068877071267032,
      "gps_lon": -155.59418807509962,
      "name": "parents"
    },
    {
      "gps_lat": 20.993133543420058,
      "gps_lon": -155.512760332412,
      "name": "grocery"
    },
    {
      "gps_lat": 20.963807060738354,
      "gps_lon": -155.36738691707606,
      "name": "swimming"
    },
    {
      "gps_lat": 21.339775045592134,
      "gps_lon": -155.9528484701231,
      "name": "back_office"
    }
  ]
}